$GPGGA,090119.85,2335.11880561,S,04636.39215293,W,1,05,2.87,160.00,M,-21.3213,M,,*7A
$GPGGA,090119.90,2335.11880561,S,04636.39215293,W,1,05,2.87,160.00,M,-21.3213,M,,*7E
$GPGGA,090119.95,2335.11950570,S,04636.39210141,W,1,05,2.87,160.00,M,-21.3213,M,,*7E
$GPGGA,090120.00,2335.12018778,S,04636.39205160,W,1,05,2.87,160.00,M,-21.3213,M,,*73
$GPGGA,090120.05,2335.12079994,S,04636.39200729,W,1,05,2.87,160.00,M,-21.3213,M,,*73
$GPGGA,090120.10,2335.12147478,S,04636.39195897,W,1,05,2.87,160.00,M,-21.3213,M,,*71
$GPGGA,090120.15,2335.12220254,S,04636.39190757,W,1,05,2.87,160.00,M,-21.3213,M,,*78
$GPGGA,090120.20,2335.12288423,S,04636.39186020,W,1,05,2.87,160.00,M,-21.3213,M,,*7A
$GPGGA,090120.25,2335.12350778,S,04636.39181762,W,1,05,2.87,160.00,M,-21.3213,M,,*70
$GPGGA,090120.30,2335.12415922,S,04636.39177402,W,1,05,2.87,160.00,M,-21.3213,M,,*7F
$GPGGA,090120.35,2335.12483591,S,04636.39172983,W,1,05,2.87,160.00,M,-21.3213,M,,*70
$GPGGA,090120.40,2335.12553562,S,04636.39168547,W,1,05,2.87,160.00,M,-21.3213,M,,*7D
$GPGGA,090120.45,2335.12615843,S,04636.39164730,W,1,05,2.87,160.00,M,-21.3213,M,,*79
$GPGGA,090120.50,2335.12679948,S,04636.39160948,W,1,05,2.87,160.00,M,-21.3213,M,,*78
$GPGGA,090120.55,2335.12745785,S,04636.39157243,W,1,05,2.87,160.00,M,-21.3213,M,,*78
$GPGGA,090120.60,2335.12803345,S,04636.39154173,W,1,05,2.87,160.00,M,-21.3213,M,,*78
$GPGGA,090120.65,2335.12862444,S,04636.39151206,W,1,05,2.87,160.00,M,-21.3213,M,,*78
$GPGGA,090120.70,2335.12922947,S,04636.39148392,W,1,05,2.87,160.00,M,-21.3213,M,,*73
$GPGGA,090120.75,2335.12974767,S,04636.39146183,W,1,05,2.87,160.00,M,-21.3213,M,,*75
$GPGGA,090120.80,2335.13037637,S,04636.39143791,W,1,05,2.87,160.00,M,-21.3213,M,,*74
$GPGGA,090120.85,2335.13091583,S,04636.39142022,W,1,05,2.87,160.00,M,-21.3213,M,,*7F
$GPGGA,090120.90,2335.13146411,S,04636.39140533,W,1,05,2.87,160.00,M,-21.3213,M,,*7D
$GPGGA,090120.95,2335.13192216,S,04636.39139558,W,1,05,2.87,160.00,M,-21.3213,M,,*73
$GPGGA,090121.00,2335.13248481,S,04636.39138743,W,1,05,2.87,160.00,M,-21.3213,M,,*7B
$GPGGA,090121.05,2335.13295579,S,04636.39138428,W,1,05,2.87,160.00,M,-21.3213,M,,*76
$GPGGA,090121.10,2335.13343065,S,04636.39138498,W,1,05,2.87,160.00,M,-21.3213,M,,*7B
$GPGGA,090121.15,2335.13390684,S,04636.39139014,W,1,05,2.87,160.00,M,-21.3213,M,,*78
$GPGGA,090121.20,2335.13438173,S,04636.39140036,W,1,05,2.87,160.00,M,-21.3213,M,,*7A
$GPGGA,090121.25,2335.13485258,S,04636.39141628,W,1,05,2.87,160.00,M,-21.3213,M,,*7B
$GPGGA,090121.30,2335.13531657,S,04636.39143847,W,1,05,2.87,160.00,M,-21.3213,M,,*7F
$GPGGA,090121.35,2335.13577075,S,04636.39146749,W,1,05,2.87,160.00,M,-21.3213,M,,*7A
$GPGGA,090121.40,2335.13621208,S,04636.39150382,W,1,05,2.87,160.00,M,-21.3213,M,,*74
$GPGGA,090121.45,2335.13663740,S,04636.39154777,W,1,05,2.87,160.00,M,-21.3213,M,,*74
$GPGGA,090121.50,2335.13704345,S,04636.39159945,W,1,05,2.87,160.00,M,-21.3213,M,,*73
$GPGGA,090121.55,2335.13710446,S,04636.39160813,W,1,05,2.87,160.00,M,-21.3213,M,,*7F
$GPGGA,090121.60,2335.13748759,S,04636.39166771,W,1,05,2.87,160.00,M,-21.3213,M,,*74
$GPGGA,090121.65,2335.13794819,S,04636.39174773,W,1,05,2.87,160.00,M,-21.3213,M,,*7A
$GPGGA,090121.70,2335.13837357,S,04636.39182860,W,1,05,2.87,160.00,M,-21.3213,M,,*7D
$GPGGA,090121.75,2335.13871897,S,04636.39189469,W,1,05,2.87,160.00,M,-21.3213,M,,*73
$GPGGA,090121.80,2335.13912612,S,04636.39196840,W,1,05,2.87,160.00,M,-21.3213,M,,*77
$GPGGA,090121.85,2335.13951439,S,04636.39203319,W,1,05,2.87,160.00,M,-21.3213,M,,*76
$GPGGA,090121.90,2335.13991135,S,04636.39208968,W,1,05,2.87,160.00,M,-21.3213,M,,*70
$GPGGA,090121.95,2335.14030455,S,04636.39213435,W,1,05,2.87,160.00,M,-21.3213,M,,*7C
$GPGGA,090122.00,2335.14069978,S,04636.39216371,W,1,05,2.87,160.00,M,-21.3213,M,,*7F
$GPGGA,090122.05,2335.14116970,S,04636.39217789,W,1,05,2.87,160.00,M,-21.3213,M,,*79
$GPGGA,090122.10,2335.14155939,S,04636.39217142,W,1,05,2.87,160.00,M,-21.3213,M,,*76
$GPGGA,090122.15,2335.14169685,S,04636.39216438,W,1,05,2.87,160.00,M,-21.3213,M,,*7D
$GPGGA,090122.20,2335.14208449,S,04636.39213089,W,1,05,2.87,160.00,M,-21.3213,M,,*76
$GPGGA,090122.25,2335.14255089,S,04636.39206864,W,1,05,2.87,160.00,M,-21.3213,M,,*7C
$GPGGA,090122.30,2335.14294285,S,04636.39199766,W,1,05,2.87,160.00,M,-21.3213,M,,*73
$GPGGA,090122.35,2335.14330179,S,04636.39191648,W,1,05,2.87,160.00,M,-21.3213,M,,*7C
$GPGGA,090122.40,2335.14368968,S,04636.39181140,W,1,05,2.87,160.00,M,-21.3213,M,,*75
$GPGGA,090122.45,2335.14407372,S,04636.39169309,W,1,05,2.87,160.00,M,-21.3213,M,,*76
$GPGGA,090122.50,2335.14446337,S,04636.39155930,W,1,05,2.87,160.00,M,-21.3213,M,,*79
$GPGGA,090122.55,2335.14484243,S,04636.39141941,W,1,05,2.87,160.00,M,-21.3213,M,,*73
$GPGGA,090122.60,2335.14524020,S,04636.39126305,W,1,05,2.87,160.00,M,-21.3213,M,,*72
$GPGGA,090122.65,2335.14564809,S,04636.39109927,W,1,05,2.87,160.00,M,-21.3213,M,,*77
$GPGGA,090122.70,2335.14607288,S,04636.39093344,W,1,05,2.87,160.00,M,-21.3213,M,,*7B
$GPGGA,090122.75,2335.14634609,S,04636.39083291,W,1,05,2.87,160.00,M,-21.3213,M,,*7B
$GPGGA,090122.80,2335.14673436,S,04636.39070065,W,1,05,2.87,160.00,M,-21.3213,M,,*79
$GPGGA,090122.85,2335.14714444,S,04636.39057268,W,1,05,2.87,160.00,M,-21.3213,M,,*73
$GPGGA,090122.90,2335.14757239,S,04636.39044979,W,1,05,2.87,160.00,M,-21.3213,M,,*75
$GPGGA,090122.95,2335.14801681,S,04636.39033177,W,1,05,2.87,160.00,M,-21.3213,M,,*7D
$GPGGA,090123.00,2335.14847388,S,04636.39021898,W,1,05,2.87,160.00,M,-21.3213,M,,*75
$GPGGA,090123.05,2335.14884870,S,04636.39013205,W,1,05,2.87,160.00,M,-21.3213,M,,*7C
$GPGGA,090123.10,2335.14932095,S,04636.39002869,W,1,05,2.87,160.00,M,-21.3213,M,,*77
$GPGGA,090123.15,2335.14979764,S,04636.38993038,W,1,05,2.87,160.00,M,-21.3213,M,,*78
$GPGGA,090123.20,2335.15027617,S,04636.38983696,W,1,05,2.87,160.00,M,-21.3213,M,,*7B
$GPGGA,090123.25,2335.15075408,S,04636.38974824,W,1,05,2.87,160.00,M,-21.3213,M,,*7A
$GPGGA,090123.30,2335.15132745,S,04636.38964702,W,1,05,2.87,160.00,M,-21.3213,M,,*7C
$GPGGA,090123.35,2335.15179952,S,04636.38956744,W,1,05,2.87,160.00,M,-21.3213,M,,*7D
$GPGGA,090123.40,2335.15236675,S,04636.38947568,W,1,05,2.87,160.00,M,-21.3213,M,,*71
$GPGGA,090123.45,2335.15282892,S,04636.38940369,W,1,05,2.87,160.00,M,-21.3213,M,,*7C
$GPGGA,090123.50,2335.15338616,S,04636.38931978,W,1,05,2.87,160.00,M,-21.3213,M,,*76
$GPGGA,090123.55,2335.15403983,S,04636.38922490,W,1,05,2.87,160.00,M,-21.3213,M,,*76
$GPGGA,090123.60,2335.15458514,S,04636.38914831,W,1,05,2.87,160.00,M,-21.3213,M,,*7E
$GPGGA,090123.65,2335.15512306,S,04636.38907475,W,1,05,2.87,160.00,M,-21.3213,M,,*7F
$GPGGA,090123.70,2335.15575688,S,04636.38899033,W,1,05,2.87,160.00,M,-21.3213,M,,*79
$GPGGA,090123.75,2335.15638302,S,04636.38890902,W,1,05,2.87,160.00,M,-21.3213,M,,*73
$GPGGA,090123.80,2335.15700085,S,04636.38883059,W,1,05,2.87,160.00,M,-21.3213,M,,*7A
$GPGGA,090123.85,2335.15771495,S,04636.38874187,W,1,05,2.87,160.00,M,-21.3213,M,,*76
$GPGGA,090123.90,2335.15831484,S,04636.38866874,W,1,05,2.87,160.00,M,-21.3213,M,,*7F
$GPGGA,090123.95,2335.15901065,S,04636.38858533,W,1,05,2.87,160.00,M,-21.3213,M,,*70
$GPGGA,090124.00,2335.15969709,S,04636.38850434,W,1,05,2.87,160.00,M,-21.3213,M,,*76
$GPGGA,090124.05,2335.16048117,S,04636.38841320,W,1,05,2.87,160.00,M,-21.3213,M,,*71
$GPGGA,090124.10,2335.16115148,S,04636.38833630,W,1,05,2.87,160.00,M,-21.3213,M,,*77
$GPGGA,090124.15,2335.16181508,S,04636.38826098,W,1,05,2.87,160.00,M,-21.3213,M,,*7F
$GPGGA,090124.20,2335.16257979,S,04636.38817506,W,1,05,2.87,160.00,M,-21.3213,M,,*7B
$GPGGA,090124.25,2335.16334017,S,04636.38809045,W,1,05,2.87,160.00,M,-21.3213,M,,*76
$GPGGA,090124.30,2335.16409726,S,04636.38800693,W,1,05,2.87,160.00,M,-21.3213,M,,*7A
$GPGGA,090124.35,2335.16485215,S,04636.38792428,W,1,05,2.87,160.00,M,-21.3213,M,,*78
$GPGGA,090124.40,2335.16560595,S,04636.38784231,W,1,05,2.87,160.00,M,-21.3213,M,,*76
$GPGGA,090124.45,2335.16635981,S,04636.38776084,W,1,05,2.87,160.00,M,-21.3213,M,,*78
$GPGGA,090124.50,2335.16700714,S,04636.38769126,W,1,05,2.87,160.00,M,-21.3213,M,,*7E
$GPGGA,090124.55,2335.16776273,S,04636.38761046,W,1,05,2.87,160.00,M,-21.3213,M,,*71
$GPGGA,090124.60,2335.16851911,S,04636.38752998,W,1,05,2.87,160.00,M,-21.3213,M,,*78
$GPGGA,090124.65,2335.16927617,S,04636.38744982,W,1,05,2.87,160.00,M,-21.3213,M,,*78
$GPGGA,090124.70,2335.17003384,S,04636.38736998,W,1,05,2.87,160.00,M,-21.3213,M,,*73
$GPGGA,090124.75,2335.17079202,S,04636.38729048,W,1,05,2.87,160.00,M,-21.3213,M,,*7E
$GPGGA,090124.80,2335.17155066,S,04636.38721132,W,1,05,2.87,160.00,M,-21.3213,M,,*7F
$GPGGA,090124.85,2335.17231121,S,04636.38713237,W,1,05,2.87,160.00,M,-21.3213,M,,*7E
$GPGGA,090124.90,2335.17307061,S,04636.38705396,W,1,05,2.87,160.00,M,-21.3213,M,,*76
$GPGGA,090124.95,2335.17383032,S,04636.38697598,W,1,05,2.87,160.00,M,-21.3213,M,,*7B
$GPGGA,090125.00,2335.17459031,S,04636.38689847,W,1,05,2.87,160.00,M,-21.3213,M,,*75
$GPGGA,090125.05,2335.17524273,S,04636.38683237,W,1,05,2.87,160.00,M,-21.3213,M,,*78
$GPGGA,090125.10,2335.17600317,S,04636.38675588,W,1,05,2.87,160.00,M,-21.3213,M,,*70
$GPGGA,090125.15,2335.17676382,S,04636.38668004,W,1,05,2.87,160.00,M,-21.3213,M,,*75
$GPGGA,090125.20,2335.17752466,S,04636.38660495,W,1,05,2.87,160.00,M,-21.3213,M,,*7D
$GPGGA,090125.25,2335.17828568,S,04636.38653069,W,1,05,2.87,160.00,M,-21.3213,M,,*72
$GPGGA,090125.30,2335.17904688,S,04636.38645739,W,1,05,2.87,160.00,M,-21.3213,M,,*71
$GPGGA,090125.35,2335.17980823,S,04636.38638514,W,1,05,2.87,160.00,M,-21.3213,M,,*70
$GPGGA,090125.40,2335.18056974,S,04636.38631386,W,1,05,2.87,160.00,M,-21.3213,M,,*78
$GPGGA,090125.45,2335.18133137,S,04636.38624340,W,1,05,2.87,160.00,M,-21.3213,M,,*7E
$GPGGA,090125.50,2335.18209311,S,04636.38617366,W,1,05,2.87,160.00,M,-21.3213,M,,*72
$GPGGA,090125.55,2335.18274697,S,04636.38611431,W,1,05,2.87,160.00,M,-21.3213,M,,*75
$GPGGA,090125.60,2335.18350889,S,04636.38604565,W,1,05,2.87,160.00,M,-21.3213,M,,*71
$GPGGA,090125.65,2335.18427088,S,04636.38597747,W,1,05,2.87,160.00,M,-21.3213,M,,*71
$GPGGA,090125.70,2335.18503293,S,04636.38590970,W,1,05,2.87,160.00,M,-21.3213,M,,*77
$GPGGA,090125.75,2335.18579504,S,04636.38584227,W,1,05,2.87,160.00,M,-21.3213,M,,*7A
$GPGGA,090125.80,2335.18655720,S,04636.38577514,W,1,05,2.87,160.00,M,-21.3213,M,,*72
$GPGGA,090125.85,2335.18731940,S,04636.38570825,W,1,05,2.87,160.00,M,-21.3213,M,,*74
$GPGGA,090125.90,2335.18808164,S,04636.38564158,W,1,05,2.87,160.00,M,-21.3213,M,,*7D
$GPGGA,090125.95,2335.18884391,S,04636.38557509,W,1,05,2.87,160.00,M,-21.3213,M,,*74
$GPGGA,090126.00,2335.18949818,S,04636.38551813,W,1,05,2.87,160.00,M,-21.3213,M,,*71
$GPGGA,090126.05,2335.19026049,S,04636.38545188,W,1,05,2.87,160.00,M,-21.3213,M,,*77
$GPGGA,090126.10,2335.19102282,S,04636.38538572,W,1,05,2.87,160.00,M,-21.3213,M,,*7A
$GPGGA,090126.15,2335.19178517,S,04636.38531962,W,1,05,2.87,160.00,M,-21.3213,M,,*7D
$GPGGA,090126.20,2335.19254752,S,04636.38525356,W,1,05,2.87,160.00,M,-21.3213,M,,*7D
$GPGGA,090126.25,2335.19330989,S,04636.38518752,W,1,05,2.87,160.00,M,-21.3213,M,,*7D
$GPGGA,090126.30,2335.19407226,S,04636.38512147,W,1,05,2.87,160.00,M,-21.3213,M,,*7C
$GPGGA,090126.35,2335.19483464,S,04636.38505540,W,1,05,2.87,160.00,M,-21.3213,M,,*70
$GPGGA,090126.40,2335.19548898,S,04636.38499864,W,1,05,2.87,160.00,M,-21.3213,M,,*74
$GPGGA,090126.45,2335.19625136,S,04636.38493245,W,1,05,2.87,160.00,M,-21.3213,M,,*77
$GPGGA,090126.50,2335.19701373,S,04636.38486615,W,1,05,2.87,160.00,M,-21.3213,M,,*72
$GPGGA,090126.55,2335.19777609,S,04636.38479973,W,1,05,2.87,160.00,M,-21.3213,M,,*71
$GPGGA,090126.60,2335.19853845,S,04636.38473314,W,1,05,2.87,160.00,M,-21.3213,M,,*79
$GPGGA,090126.65,2335.19930079,S,04636.38466636,W,1,05,2.87,160.00,M,-21.3213,M,,*7E
$GPGGA,090126.70,2335.20006312,S,04636.38459935,W,1,05,2.87,160.00,M,-21.3213,M,,*72
$GPGGA,090126.75,2335.20082542,S,04636.38453207,W,1,05,2.87,160.00,M,-21.3213,M,,*78
$GPGGA,090126.80,2335.20158771,S,04636.38446446,W,1,05,2.87,160.00,M,-21.3213,M,,*71
$GPGGA,090126.85,2335.20224196,S,04636.38440613,W,1,05,2.87,160.00,M,-21.3213,M,,*77
$GPGGA,090126.90,2335.20300419,S,04636.38433778,W,1,05,2.87,160.00,M,-21.3213,M,,*7E
$GPGGA,090126.95,2335.20376638,S,04636.38426892,W,1,05,2.87,160.00,M,-21.3213,M,,*74
$GPGGA,090127.00,2335.20452854,S,04636.38419948,W,1,05,2.87,160.00,M,-21.3213,M,,*76
$GPGGA,090127.05,2335.20529064,S,04636.38412937,W,1,05,2.87,160.00,M,-21.3213,M,,*76
$GPGGA,090127.10,2335.20605269,S,04636.38405848,W,1,05,2.87,160.00,M,-21.3213,M,,*7F
$GPGGA,090127.15,2335.20681468,S,04636.38398669,W,1,05,2.87,160.00,M,-21.3213,M,,*7F
$GPGGA,090127.20,2335.20757660,S,04636.38391387,W,1,05,2.87,160.00,M,-21.3213,M,,*75
$GPGGA,090127.25,2335.20833844,S,04636.38384000,W,1,05,2.87,160.00,M,-21.3213,M,,*7D
$GPGGA,090127.30,2335.20899228,S,04636.38377585,W,1,05,2.87,160.00,M,-21.3213,M,,*7D
$GPGGA,090127.35,2335.20975402,S,04636.38370036,W,1,05,2.87,160.00,M,-21.3213,M,,*7F
$GPGGA,090127.40,2335.21051571,S,04636.38362416,W,1,05,2.87,160.00,M,-21.3213,M,,*73
$GPGGA,090127.45,2335.21127736,S,04636.38354735,W,1,05,2.87,160.00,M,-21.3213,M,,*70
$GPGGA,090127.50,2335.21203897,S,04636.38347000,W,1,05,2.87,160.00,M,-21.3213,M,,*76
$GPGGA,090127.55,2335.21280055,S,04636.38339218,W,1,05,2.87,160.00,M,-21.3213,M,,*7C
$GPGGA,090127.60,2335.21356211,S,04636.38331397,W,1,05,2.87,160.00,M,-21.3213,M,,*7C
$GPGGA,090127.65,2335.21432365,S,04636.38323540,W,1,05,2.87,160.00,M,-21.3213,M,,*71
$GPGGA,090127.70,2335.21497727,S,04636.38316773,W,1,05,2.87,160.00,M,-21.3213,M,,*7C
$GPGGA,090127.75,2335.21573878,S,04636.38308863,W,1,05,2.87,160.00,M,-21.3213,M,,*76
$GPGGA,090127.80,2335.21650027,S,04636.38300930,W,1,05,2.87,160.00,M,-21.3213,M,,*73
$GPGGA,090127.85,2335.21726174,S,04636.38292977,W,1,05,2.87,160.00,M,-21.3213,M,,*78
$GPGGA,090127.90,2335.21802321,S,04636.38285007,W,1,05,2.87,160.00,M,-21.3213,M,,*7F
$GPGGA,090127.95,2335.21878467,S,04636.38277021,W,1,05,2.87,160.00,M,-21.3213,M,,*7B
$GPGGA,090128.00,2335.21954611,S,04636.38269022,W,1,05,2.87,160.00,M,-21.3213,M,,*78
$GPGGA,090128.05,2335.22030755,S,04636.38261012,W,1,05,2.87,160.00,M,-21.3213,M,,*7F
$GPGGA,090128.10,2335.22106899,S,04636.38252991,W,1,05,2.87,160.00,M,-21.3213,M,,*72
$GPGGA,090128.15,2335.22172254,S,04636.38246100,W,1,05,2.87,160.00,M,-21.3213,M,,*7A
$GPGGA,090128.20,2335.22248397,S,04636.38238065,W,1,05,2.87,160.00,M,-21.3213,M,,*73
$GPGGA,090128.25,2335.22324539,S,04636.38230023,W,1,05,2.87,160.00,M,-21.3213,M,,*75
$GPGGA,090128.30,2335.22400680,S,04636.38221975,W,1,05,2.87,160.00,M,-21.3213,M,,*7B
$GPGGA,090128.35,2335.22476822,S,04636.38213923,W,1,05,2.87,160.00,M,-21.3213,M,,*7B
$GPGGA,090128.40,2335.22552963,S,04636.38205866,W,1,05,2.87,160.00,M,-21.3213,M,,*7D
$GPGGA,090128.45,2335.22629104,S,04636.38197805,W,1,05,2.87,160.00,M,-21.3213,M,,*73
$GPGGA,090128.50,2335.22705095,S,04636.38189757,W,1,05,2.87,160.00,M,-21.3213,M,,*76
$GPGGA,090128.55,2335.22781235,S,04636.38181690,W,1,05,2.87,160.00,M,-21.3213,M,,*75
$GPGGA,090128.60,2335.22846588,S,04636.38174765,W,1,05,2.87,160.00,M,-21.3213,M,,*77
$GPGGA,090128.65,2335.22922728,S,04636.38166694,W,1,05,2.87,160.00,M,-21.3213,M,,*75
$GPGGA,090128.70,2335.22998868,S,04636.38158621,W,1,05,2.87,160.00,M,-21.3213,M,,*78
$GPGGA,090128.75,2335.23075008,S,04636.38150547,W,1,05,2.87,160.00,M,-21.3213,M,,*73
$GPGGA,090128.80,2335.23151148,S,04636.38142472,W,1,05,2.87,160.00,M,-21.3213,M,,*7F
$GPGGA,090128.85,2335.23227287,S,04636.38134395,W,1,05,2.87,160.00,M,-21.3213,M,,*77
$GPGGA,090128.90,2335.23303426,S,04636.38126317,W,1,05,2.87,160.00,M,-21.3213,M,,*70
$GPGGA,090128.95,2335.23379565,S,04636.38118239,W,1,05,2.87,160.00,M,-21.3213,M,,*7E
$GPGGA,090129.00,2335.23444917,S,04636.38111305,W,1,05,2.87,160.00,M,-21.3213,M,,*74
$GPGGA,090129.05,2335.23521056,S,04636.38103226,W,1,05,2.87,160.00,M,-21.3213,M,,*7C
$GPGGA,090129.10,2335.23597194,S,04636.38095146,W,1,05,2.87,160.00,M,-21.3213,M,,*71
$GPGGA,090129.15,2335.23673333,S,04636.38087066,W,1,05,2.87,160.00,M,-21.3213,M,,*72
$GPGGA,090129.20,2335.23749471,S,04636.38078986,W,1,05,2.87,160.00,M,-21.3213,M,,*7A
$GPGGA,090129.25,2335.23825609,S,04636.38070906,W,1,05,2.87,160.00,M,-21.3213,M,,*77
$GPGGA,090129.30,2335.23901746,S,04636.38062826,W,1,05,2.87,160.00,M,-21.3213,M,,*7E
$GPGGA,090129.35,2335.23977883,S,04636.38054747,W,1,05,2.87,160.00,M,-21.3213,M,,*71
$GPGGA,090129.40,2335.24054020,S,04636.38046667,W,1,05,2.87,160.00,M,-21.3213,M,,*7D
$GPGGA,090129.45,2335.24119369,S,04636.38039733,W,1,05,2.87,160.00,M,-21.3213,M,,*76
$GPGGA,090129.50,2335.24195505,S,04636.38031655,W,1,05,2.87,160.00,M,-21.3213,M,,*73
$GPGGA,090129.55,2335.24271640,S,04636.38023577,W,1,05,2.87,160.00,M,-21.3213,M,,*7D
$GPGGA,090129.60,2335.24347774,S,04636.38015501,W,1,05,2.87,160.00,M,-21.3213,M,,*7D
$GPGGA,090129.65,2335.24423908,S,04636.38007425,W,1,05,2.87,160.00,M,-21.3213,M,,*7C
$GPGGA,090129.70,2335.24500041,S,04636.37999351,W,1,05,2.87,160.00,M,-21.3213,M,,*79
$GPGGA,090129.75,2335.24576172,S,04636.37991278,W,1,05,2.87,160.00,M,-21.3213,M,,*7E
$GPGGA,090129.80,2335.24652303,S,04636.37983207,W,1,05,2.87,160.00,M,-21.3213,M,,*7E
$GPGGA,090129.85,2335.24728432,S,04636.37975138,W,1,05,2.87,160.00,M,-21.3213,M,,*74
$GPGGA,090129.90,2335.24793773,S,04636.37968214,W,1,05,2.87,160.00,M,-21.3213,M,,*77
$GPGGA,090129.95,2335.24869899,S,04636.37960150,W,1,05,2.87,160.00,M,-21.3213,M,,*78
$GPGGA,090130.00,2335.24946022,S,04636.37952089,W,1,05,2.87,160.00,M,-21.3213,M,,*7C
$GPGGA,090130.05,2335.25022143,S,04636.37944032,W,1,05,2.87,160.00,M,-21.3213,M,,*72
$GPGGA,090130.10,2335.25098262,S,04636.37935979,W,1,05,2.87,160.00,M,-21.3213,M,,*77
$GPGGA,090130.15,2335.25174377,S,04636.37927931,W,1,05,2.87,160.00,M,-21.3213,M,,*7B
$GPGGA,090130.20,2335.25250489,S,04636.37919888,W,1,05,2.87,160.00,M,-21.3213,M,,*70
$GPGGA,090130.25,2335.25326596,S,04636.37911852,W,1,05,2.87,160.00,M,-21.3213,M,,*75
$GPGGA,090130.30,2335.25391914,S,04636.37904961,W,1,05,2.87,160.00,M,-21.3213,M,,*7E
$GPGGA,090130.35,2335.25468011,S,04636.37896940,W,1,05,2.87,160.00,M,-21.3213,M,,*7F
$GPGGA,090130.40,2335.25544102,S,04636.37888929,W,1,05,2.87,160.00,M,-21.3213,M,,*71
$GPGGA,090130.45,2335.25620185,S,04636.37880929,W,1,05,2.87,160.00,M,-21.3213,M,,*72
$GPGGA,090130.50,2335.25696260,S,04636.37872942,W,1,05,2.87,160.00,M,-21.3213,M,,*73
$GPGGA,090130.55,2335.25772325,S,04636.37864970,W,1,05,2.87,160.00,M,-21.3213,M,,*7B
$GPGGA,090130.60,2335.25848379,S,04636.37857015,W,1,05,2.87,160.00,M,-21.3213,M,,*78
$GPGGA,090130.65,2335.25924421,S,04636.37849081,W,1,05,2.87,160.00,M,-21.3213,M,,*7E
$GPGGA,090130.70,2335.26000447,S,04636.37841169,W,1,05,2.87,160.00,M,-21.3213,M,,*79
$GPGGA,090130.75,2335.26076456,S,04636.37833283,W,1,05,2.87,160.00,M,-21.3213,M,,*7F
$GPGGA,090130.80,2335.26141668,S,04636.37826541,W,1,05,2.87,160.00,M,-21.3213,M,,*72
$GPGGA,090130.85,2335.26217637,S,04636.37818716,W,1,05,2.87,160.00,M,-21.3213,M,,*70
$GPGGA,090130.90,2335.26293579,S,04636.37810931,W,1,05,2.87,160.00,M,-21.3213,M,,*72
$GPGGA,090130.95,2335.26369492,S,04636.37803191,W,1,05,2.87,160.00,M,-21.3213,M,,*77
$GPGGA,090131.00,2335.26445371,S,04636.37795504,W,1,05,2.87,160.00,M,-21.3213,M,,*71
$GPGGA,090131.05,2335.26521211,S,04636.37787877,W,1,05,2.87,160.00,M,-21.3213,M,,*7A
$GPGGA,090131.10,2335.26597005,S,04636.37780320,W,1,05,2.87,160.00,M,-21.3213,M,,*7A
$GPGGA,090131.15,2335.26672748,S,04636.37772843,W,1,05,2.87,160.00,M,-21.3213,M,,*7A
$GPGGA,090131.20,2335.26748431,S,04636.37765458,W,1,05,2.87,160.00,M,-21.3213,M,,*79
$GPGGA,090131.25,2335.26824071,S,04636.37758176,W,1,05,2.87,160.00,M,-21.3213,M,,*7E
$GPGGA,090131.30,2335.26899774,S,04636.37751003,W,1,05,2.87,160.00,M,-21.3213,M,,*74
$GPGGA,090131.35,2335.26964918,S,04636.37744936,W,1,05,2.87,160.00,M,-21.3213,M,,*7D
$GPGGA,090131.40,2335.27041111,S,04636.37737982,W,1,05,2.87,160.00,M,-21.3213,M,,*7A
$GPGGA,090131.45,2335.27117723,S,04636.37731166,W,1,05,2.87,160.00,M,-21.3213,M,,*7E
$GPGGA,090131.50,2335.27194871,S,04636.37724509,W,1,05,2.87,160.00,M,-21.3213,M,,*70
$GPGGA,090131.55,2335.27261960,S,04636.37718915,W,1,05,2.87,160.00,M,-21.3213,M,,*73
$GPGGA,090131.60,2335.27329832,S,04636.37713466,W,1,05,2.87,160.00,M,-21.3213,M,,*7C
$GPGGA,090131.65,2335.27409279,S,04636.37707398,W,1,05,2.87,160.00,M,-21.3213,M,,*7A
$GPGGA,090131.70,2335.27468367,S,04636.37703131,W,1,05,2.87,160.00,M,-21.3213,M,,*72
$GPGGA,090131.75,2335.27539225,S,04636.37698332,W,1,05,2.87,160.00,M,-21.3213,M,,*77
$GPGGA,090131.80,2335.27611152,S,04636.37693833,W,1,05,2.87,160.00,M,-21.3213,M,,*76
$GPGGA,090131.85,2335.27673496,S,04636.37690242,W,1,05,2.87,160.00,M,-21.3213,M,,*75
$GPGGA,090131.90,2335.27736871,S,04636.37686894,W,1,05,2.87,160.00,M,-21.3213,M,,*72
$GPGGA,090131.95,2335.27801235,S,04636.37683818,W,1,05,2.87,160.00,M,-21.3213,M,,*77
$GPGGA,090132.00,2335.27856019,S,04636.37681473,W,1,05,2.87,160.00,M,-21.3213,M,,*75
$GPGGA,090132.05,2335.27922253,S,04636.37678996,W,1,05,2.87,160.00,M,-21.3213,M,,*7E
$GPGGA,090132.10,2335.27978878,S,04636.37677214,W,1,05,2.87,160.00,M,-21.3213,M,,*78
$GPGGA,090132.15,2335.28036367,S,04636.37675749,W,1,05,2.87,160.00,M,-21.3213,M,,*7B
$GPGGA,090132.20,2335.28094667,S,04636.37674652,W,1,05,2.87,160.00,M,-21.3213,M,,*7A
$GPGGA,090132.25,2335.28143414,S,04636.37674066,W,1,05,2.87,160.00,M,-21.3213,M,,*73
$GPGGA,090132.30,2335.28203208,S,04636.37673802,W,1,05,2.87,160.00,M,-21.3213,M,,*76
$GPGGA,090132.35,2335.28253438,S,04636.37674010,W,1,05,2.87,160.00,M,-21.3213,M,,*7F
$GPGGA,090132.40,2335.28304346,S,04636.37674669,W,1,05,2.87,160.00,M,-21.3213,M,,*78
$GPGGA,090132.45,2335.28345825,S,04636.37675576,W,1,05,2.87,160.00,M,-21.3213,M,,*7A
$GPGGA,090132.50,2335.28397967,S,04636.37677241,W,1,05,2.87,160.00,M,-21.3213,M,,*77
$GPGGA,090132.55,2335.28440702,S,04636.37679090,W,1,05,2.87,160.00,M,-21.3213,M,,*72
$GPGGA,090132.60,2335.28493792,S,04636.37682077,W,1,05,2.87,160.00,M,-21.3213,M,,*7E
$GPGGA,090132.65,2335.28537504,S,04636.37685180,W,1,05,2.87,160.00,M,-21.3213,M,,*77
$GPGGA,090132.70,2335.28572064,S,04636.37688097,W,1,05,2.87,160.00,M,-21.3213,M,,*7B
$GPGGA,090132.75,2335.28616659,S,04636.37692542,W,1,05,2.87,160.00,M,-21.3213,M,,*71
$GPGGA,090132.80,2335.28661518,S,04636.37697882,W,1,05,2.87,160.00,M,-21.3213,M,,*79
$GPGGA,090132.85,2335.28697353,S,04636.37702863,W,1,05,2.87,160.00,M,-21.3213,M,,*7E
$GPGGA,090132.90,2335.28733549,S,04636.37708623,W,1,05,2.87,160.00,M,-21.3213,M,,*78
$GPGGA,090132.95,2335.28770032,S,04636.37715267,W,1,05,2.87,160.00,M,-21.3213,M,,*7B
$GPGGA,090133.00,2335.28797956,S,04636.37720993,W,1,05,2.87,160.00,M,-21.3213,M,,*72
$GPGGA,090133.05,2335.28834946,S,04636.37729556,W,1,05,2.87,160.00,M,-21.3213,M,,*7C
$GPGGA,090133.10,2335.28863549,S,04636.37737036,W,1,05,2.87,160.00,M,-21.3213,M,,*75
$GPGGA,090133.15,2335.28892473,S,04636.37745474,W,1,05,2.87,160.00,M,-21.3213,M,,*71
$GPGGA,090133.20,2335.28921634,S,04636.37754996,W,1,05,2.87,160.00,M,-21.3213,M,,*7E
$GPGGA,090133.25,2335.28950865,S,04636.37765717,W,1,05,2.87,160.00,M,-21.3213,M,,*72
$GPGGA,090133.30,2335.28972282,S,04636.37774427,W,1,05,2.87,160.00,M,-21.3213,M,,*75
$GPGGA,090133.35,2335.29001276,S,04636.37787564,W,1,05,2.87,160.00,M,-21.3213,M,,*7D
$GPGGA,090133.40,2335.29022509,S,04636.37798317,W,1,05,2.87,160.00,M,-21.3213,M,,*7D
$GPGGA,090133.45,2335.29043505,S,04636.37810047,W,1,05,2.87,160.00,M,-21.3213,M,,*7A
$GPGGA,090133.50,2335.29064113,S,04636.37822795,W,1,05,2.87,160.00,M,-21.3213,M,,*71
$GPGGA,090133.55,2335.29084190,S,04636.37836599,W,1,05,2.87,160.00,M,-21.3213,M,,*7A
$GPGGA,090133.60,2335.29103603,S,04636.37851490,W,1,05,2.87,160.00,M,-21.3213,M,,*76
$GPGGA,090133.65,2335.29122231,S,04636.37867499,W,1,05,2.87,160.00,M,-21.3213,M,,*79
$GPGGA,090133.70,2335.29126427,S,04636.37871371,W,1,05,2.87,160.00,M,-21.3213,M,,*7E
$GPGGA,090133.75,2335.29143973,S,04636.37888763,W,1,05,2.87,160.00,M,-21.3213,M,,*75
$GPGGA,090133.80,2335.29160632,S,04636.37907176,W,1,05,2.87,160.00,M,-21.3213,M,,*70
$GPGGA,090133.85,2335.29176383,S,04636.37926437,W,1,05,2.87,160.00,M,-21.3213,M,,*7E
$GPGGA,090133.90,2335.29191296,S,04636.37946475,W,1,05,2.87,160.00,M,-21.3213,M,,*76
$GPGGA,090133.95,2335.29205349,S,04636.37967097,W,1,05,2.87,160.00,M,-21.3213,M,,*75
$GPGGA,090134.00,2335.29218555,S,04636.37988136,W,1,05,2.87,160.00,M,-21.3213,M,,*72
$GPGGA,090134.05,2335.29230929,S,04636.38009418,W,1,05,2.87,160.00,M,-21.3213,M,,*7C
$GPGGA,090134.10,2335.29246569,S,04636.38038674,W,1,05,2.87,160.00,M,-21.3213,M,,*7B
$GPGGA,090134.15,2335.29257173,S,04636.38060121,W,1,05,2.87,160.00,M,-21.3213,M,,*7B
$GPGGA,090134.20,2335.29270741,S,04636.38089623,W,1,05,2.87,160.00,M,-21.3213,M,,*7D
$GPGGA,090134.25,2335.29283267,S,04636.38119060,W,1,05,2.87,160.00,M,-21.3213,M,,*7C
$GPGGA,090134.30,2335.29298200,S,04636.38157163,W,1,05,2.87,160.00,M,-21.3213,M,,*7B
$GPGGA,090134.35,2335.29308800,S,04636.38186354,W,1,05,2.87,160.00,M,-21.3213,M,,*76
$GPGGA,090134.40,2335.29321689,S,04636.38224437,W,1,05,2.87,160.00,M,-21.3213,M,,*79
$GPGGA,090134.45,2335.29333633,S,04636.38262455,W,1,05,2.87,160.00,M,-21.3213,M,,*78
$GPGGA,090134.50,2335.29344730,S,04636.38300303,W,1,05,2.87,160.00,M,-21.3213,M,,*7F
$GPGGA,090134.55,2335.29355063,S,04636.38337889,W,1,05,2.87,160.00,M,-21.3213,M,,*76
$GPGGA,090134.60,2335.29364708,S,04636.38375123,W,1,05,2.87,160.00,M,-21.3213,M,,*77
$GPGGA,090134.65,2335.29376110,S,04636.38422002,W,1,05,2.87,160.00,M,-21.3213,M,,*79
$GPGGA,090134.70,2335.29386738,S,04636.38468641,W,1,05,2.87,160.00,M,-21.3213,M,,*71
$GPGGA,090134.75,2335.29396672,S,04636.38514941,W,1,05,2.87,160.00,M,-21.3213,M,,*7F
$GPGGA,090134.80,2335.29405979,S,04636.38560806,W,1,05,2.87,160.00,M,-21.3213,M,,*7D
$GPGGA,090134.85,2335.29414719,S,04636.38606154,W,1,05,2.87,160.00,M,-21.3213,M,,*7D
$GPGGA,090134.90,2335.29424849,S,04636.38661584,W,1,05,2.87,160.00,M,-21.3213,M,,*78
$GPGGA,090134.95,2335.29434365,S,04636.38716534,W,1,05,2.87,160.00,M,-21.3213,M,,*73
$GPGGA,090135.00,2335.29443329,S,04636.38770914,W,1,05,2.87,160.00,M,-21.3213,M,,*78
$GPGGA,090135.05,2335.29451795,S,04636.38824640,W,1,05,2.87,160.00,M,-21.3213,M,,*7D
$GPGGA,090135.10,2335.29459809,S,04636.38877638,W,1,05,2.87,160.00,M,-21.3213,M,,*72
$GPGGA,090135.15,2335.29468992,S,04636.38940934,W,1,05,2.87,160.00,M,-21.3213,M,,*70
$GPGGA,090135.20,2335.29477703,S,04636.39003497,W,1,05,2.87,160.00,M,-21.3213,M,,*75
$GPGGA,090135.25,2335.29485989,S,04636.39065255,W,1,05,2.87,160.00,M,-21.3213,M,,*79
$GPGGA,090135.30,2335.29493889,S,04636.39126140,W,1,05,2.87,160.00,M,-21.3213,M,,*7A
$GPGGA,090135.35,2335.29501438,S,04636.39186095,W,1,05,2.87,160.00,M,-21.3213,M,,*70
$GPGGA,090135.40,2335.29510036,S,04636.39256423,W,1,05,2.87,160.00,M,-21.3213,M,,*7F
$GPGGA,090135.45,2335.29516939,S,04636.39314400,W,1,05,2.87,160.00,M,-21.3213,M,,*7C
$GPGGA,090135.50,2335.29524884,S,04636.39382729,W,1,05,2.87,160.00,M,-21.3213,M,,*79
$GPGGA,090135.55,2335.29533815,S,04636.39461467,W,1,05,2.87,160.00,M,-21.3213,M,,*71
$GPGGA,090135.60,2335.29541161,S,04636.39527673,W,1,05,2.87,160.00,M,-21.3213,M,,*7C
$GPGGA,090135.65,2335.29549497,S,04636.39604258,W,1,05,2.87,160.00,M,-21.3213,M,,*72
$GPGGA,090135.70,2335.29557561,S,04636.39679732,W,1,05,2.87,160.00,M,-21.3213,M,,*72
$GPGGA,090135.75,2335.29565385,S,04636.39754162,W,1,05,2.87,160.00,M,-21.3213,M,,*77
$GPGGA,090135.80,2335.29573017,S,04636.39827814,W,1,05,2.87,160.00,M,-21.3213,M,,*71
$GPGGA,090135.85,2335.29581632,S,04636.39912090,W,1,05,2.87,160.00,M,-21.3213,M,,*7B
$GPGGA,090135.90,2335.29588902,S,04636.39984082,W,1,05,2.87,160.00,M,-21.3213,M,,*76
$GPGGA,090135.95,2335.29597197,S,04636.40067115,W,1,05,2.87,160.00,M,-21.3213,M,,*7C
$GPGGA,090136.00,2335.29605363,S,04636.40149711,W,1,05,2.87,160.00,M,-21.3213,M,,*7D
$GPGGA,090136.05,2335.29613422,S,04636.40231994,W,1,05,2.87,160.00,M,-21.3213,M,,*72
$GPGGA,090136.10,2335.29620267,S,04636.40302436,W,1,05,2.87,160.00,M,-21.3213,M,,*75
$GPGGA,090136.15,2335.29628179,S,04636.40384463,W,1,05,2.87,160.00,M,-21.3213,M,,*7A
$GPGGA,090136.20,2335.29636039,S,04636.40466546,W,1,05,2.87,160.00,M,-21.3213,M,,*7B
$GPGGA,090136.25,2335.29643851,S,04636.40548709,W,1,05,2.87,160.00,M,-21.3213,M,,*7E
$GPGGA,090136.30,2335.29651616,S,04636.40630942,W,1,05,2.87,160.00,M,-21.3213,M,,*79
$GPGGA,090136.35,2335.29659336,S,04636.40713237,W,1,05,2.87,160.00,M,-21.3213,M,,*7A
$GPGGA,090136.40,2335.29667009,S,04636.40795586,W,1,05,2.87,160.00,M,-21.3213,M,,*79
$GPGGA,090136.45,2335.29674634,S,04636.40877982,W,1,05,2.87,160.00,M,-21.3213,M,,*7D
$GPGGA,090136.50,2335.29682207,S,04636.40960419,W,1,05,2.87,160.00,M,-21.3213,M,,*7C
$GPGGA,090136.55,2335.29689727,S,04636.41042894,W,1,05,2.87,160.00,M,-21.3213,M,,*74
$GPGGA,090136.60,2335.29697187,S,04636.41125402,W,1,05,2.87,160.00,M,-21.3213,M,,*72
$GPGGA,090136.65,2335.29703538,S,04636.41196238,W,1,05,2.87,160.00,M,-21.3213,M,,*7C
$GPGGA,090136.70,2335.29710872,S,04636.41278800,W,1,05,2.87,160.00,M,-21.3213,M,,*7B
$GPGGA,090136.75,2335.29718127,S,04636.41361386,W,1,05,2.87,160.00,M,-21.3213,M,,*73
$GPGGA,090136.80,2335.29725293,S,04636.41443996,W,1,05,2.87,160.00,M,-21.3213,M,,*77
$GPGGA,090136.85,2335.29732370,S,04636.41526626,W,1,05,2.87,160.00,M,-21.3213,M,,*7E
$GPGGA,090136.90,2335.29739371,S,04636.41609275,W,1,05,2.87,160.00,M,-21.3213,M,,*7C
$GPGGA,090136.95,2335.29746303,S,04636.41691939,W,1,05,2.87,160.00,M,-21.3213,M,,*76
$GPGGA,090137.00,2335.29753175,S,04636.41774618,W,1,05,2.87,160.00,M,-21.3213,M,,*7A
$GPGGA,090137.05,2335.29759993,S,04636.41857308,W,1,05,2.87,160.00,M,-21.3213,M,,*7F
$GPGGA,090137.10,2335.29765808,S,04636.41928294,W,1,05,2.87,160.00,M,-21.3213,M,,*7A
$GPGGA,090137.15,2335.29772542,S,04636.42011003,W,1,05,2.87,160.00,M,-21.3213,M,,*76
$GPGGA,090137.20,2335.29779237,S,04636.42093721,W,1,05,2.87,160.00,M,-21.3213,M,,*73
$GPGGA,090137.25,2335.29785896,S,04636.42176447,W,1,05,2.87,160.00,M,-21.3213,M,,*7D
$GPGGA,090137.30,2335.29792520,S,04636.42259178,W,1,05,2.87,160.00,M,-21.3213,M,,*78
$GPGGA,090137.35,2335.29799114,S,04636.42341916,W,1,05,2.87,160.00,M,-21.3213,M,,*7D
$GPGGA,090137.40,2335.29805676,S,04636.42424658,W,1,05,2.87,160.00,M,-21.3213,M,,*77
$GPGGA,090137.45,2335.29812208,S,04636.42507405,W,1,05,2.87,160.00,M,-21.3213,M,,*73
$GPGGA,090137.50,2335.29817792,S,04636.42578435,W,1,05,2.87,160.00,M,-21.3213,M,,*7F
$GPGGA,090137.55,2335.29824267,S,04636.42661189,W,1,05,2.87,160.00,M,-21.3213,M,,*7C
$GPGGA,090137.60,2335.29830712,S,04636.42743947,W,1,05,2.87,160.00,M,-21.3213,M,,*73
$GPGGA,090137.65,2335.29837122,S,04636.42826708,W,1,05,2.87,160.00,M,-21.3213,M,,*7D
$GPGGA,090137.70,2335.29843496,S,04636.42909472,W,1,05,2.87,160.00,M,-21.3213,M,,*72
$GPGGA,090137.75,2335.29849831,S,04636.42992240,W,1,05,2.87,160.00,M,-21.3213,M,,*79
$GPGGA,090137.80,2335.29856123,S,04636.43075010,W,1,05,2.87,160.00,M,-21.3213,M,,*71
$GPGGA,090137.85,2335.29862366,S,04636.43157783,W,1,05,2.87,160.00,M,-21.3213,M,,*7C
$GPGGA,090137.90,2335.29868555,S,04636.43240560,W,1,05,2.87,160.00,M,-21.3213,M,,*7E
$GPGGA,090137.95,2335.29873819,S,04636.43311614,W,1,05,2.87,160.00,M,-21.3213,M,,*71
$GPGGA,090138.00,2335.29879889,S,04636.43394397,W,1,05,2.87,160.00,M,-21.3213,M,,*72
$GPGGA,090138.05,2335.29885880,S,04636.43477184,W,1,05,2.87,160.00,M,-21.3213,M,,*77
$GPGGA,090138.10,2335.29891784,S,04636.43559975,W,1,05,2.87,160.00,M,-21.3213,M,,*76
$GPGGA,090138.15,2335.29897586,S,04636.43642771,W,1,05,2.87,160.00,M,-21.3213,M,,*76
$GPGGA,090138.20,2335.29903274,S,04636.43725574,W,1,05,2.87,160.00,M,-21.3213,M,,*71
$GPGGA,090138.25,2335.29908848,S,04636.43808382,W,1,05,2.87,160.00,M,-21.3213,M,,*75
$GPGGA,090138.30,2335.29914323,S,04636.43891196,W,1,05,2.87,160.00,M,-21.3213,M,,*7D
$GPGGA,090138.35,2335.29918953,S,04636.43962281,W,1,05,2.87,160.00,M,-21.3213,M,,*71
$GPGGA,090138.40,2335.29924278,S,04636.44045103,W,1,05,2.87,160.00,M,-21.3213,M,,*7C
$GPGGA,090138.45,2335.29929537,S,04636.44127929,W,1,05,2.87,160.00,M,-21.3213,M,,*7D
$GPGGA,090138.50,2335.29934739,S,04636.44210758,W,1,05,2.87,160.00,M,-21.3213,M,,*76
$GPGGA,090138.55,2335.29939891,S,04636.44293589,W,1,05,2.87,160.00,M,-21.3213,M,,*76
$GPGGA,090138.60,2335.29945000,S,04636.44376424,W,1,05,2.87,160.00,M,-21.3213,M,,*77
$GPGGA,090138.65,2335.29950071,S,04636.44459260,W,1,05,2.87,160.00,M,-21.3213,M,,*7C
$GPGGA,090138.70,2335.29955110,S,04636.44542099,W,1,05,2.87,160.00,M,-21.3213,M,,*74
$GPGGA,090138.75,2335.29959413,S,04636.44613203,W,1,05,2.87,160.00,M,-21.3213,M,,*7D
$GPGGA,090138.80,2335.29964403,S,04636.44696044,W,1,05,2.87,160.00,M,-21.3213,M,,*74
$GPGGA,090138.85,2335.29969372,S,04636.44778887,W,1,05,2.87,160.00,M,-21.3213,M,,*7B
$GPGGA,090138.90,2335.29974321,S,04636.44861731,W,1,05,2.87,160.00,M,-21.3213,M,,*70
$GPGGA,090138.95,2335.29979255,S,04636.44944576,W,1,05,2.87,160.00,M,-21.3213,M,,*7D
$GPGGA,090139.00,2335.29984174,S,04636.45027421,W,1,05,2.87,160.00,M,-21.3213,M,,*7C
$GPGGA,090139.05,2335.29989081,S,04636.45110268,W,1,05,2.87,160.00,M,-21.3213,M,,*71
$GPGGA,090139.10,2335.29993978,S,04636.45193115,W,1,05,2.87,160.00,M,-21.3213,M,,*73
$GPGGA,090139.15,2335.29998865,S,04636.45275963,W,1,05,2.87,160.00,M,-21.3213,M,,*72
$GPGGA,090139.20,2335.30003054,S,04636.45347074,W,1,05,2.87,160.00,M,-21.3213,M,,*72
$GPGGA,090139.25,2335.30007927,S,04636.45429923,W,1,05,2.87,160.00,M,-21.3213,M,,*7A
$GPGGA,090139.30,2335.30012795,S,04636.45512772,W,1,05,2.87,160.00,M,-21.3213,M,,*7E
$GPGGA,090139.35,2335.30017657,S,04636.45595621,W,1,05,2.87,160.00,M,-21.3213,M,,*79
$GPGGA,090139.40,2335.30022514,S,04636.45678471,W,1,05,2.87,160.00,M,-21.3213,M,,*7E
$GPGGA,090139.45,2335.30027359,S,04636.45761157,W,1,05,2.87,160.00,M,-21.3213,M,,*79
$GPGGA,090139.50,2335.30032209,S,04636.45844007,W,1,05,2.87,160.00,M,-21.3213,M,,*71
$GPGGA,090139.55,2335.30037057,S,04636.45926858,W,1,05,2.87,160.00,M,-21.3213,M,,*7F
$GPGGA,090139.60,2335.30041902,S,04636.46009708,W,1,05,2.87,160.00,M,-21.3213,M,,*7C
$GPGGA,090139.65,2335.30046059,S,04636.46080821,W,1,05,2.87,160.00,M,-21.3213,M,,*7C
$GPGGA,090139.70,2335.30050901,S,04636.46163672,W,1,05,2.87,160.00,M,-21.3213,M,,*7F
$GPGGA,090139.75,2335.30055741,S,04636.46246522,W,1,05,2.87,160.00,M,-21.3213,M,,*77
$GPGGA,090139.80,2335.30060580,S,04636.46329373,W,1,05,2.87,160.00,M,-21.3213,M,,*7E
$GPGGA,090139.85,2335.30065418,S,04636.46412224,W,1,05,2.87,160.00,M,-21.3213,M,,*72
$GPGGA,090139.90,2335.30070256,S,04636.46495074,W,1,05,2.87,160.00,M,-21.3213,M,,*76
$GPGGA,090139.95,2335.30075093,S,04636.46577925,W,1,05,2.87,160.00,M,-21.3213,M,,*7D
$GPGGA,090140.00,2335.30079930,S,04636.46660776,W,1,05,2.87,160.00,M,-21.3213,M,,*7E
$GPGGA,090140.05,2335.30084081,S,04636.46731889,W,1,05,2.87,160.00,M,-21.3213,M,,*70
$GPGGA,090140.10,2335.30088919,S,04636.46814740,W,1,05,2.87,160.00,M,-21.3213,M,,*72
$GPGGA,090140.15,2335.30093756,S,04636.46897590,W,1,05,2.87,160.00,M,-21.3213,M,,*7C
$GPGGA,090140.20,2335.30098594,S,04636.46980441,W,1,05,2.87,160.00,M,-21.3213,M,,*77
$GPGGA,090140.25,2335.30103433,S,04636.47063291,W,1,05,2.87,160.00,M,-21.3213,M,,*73
$GPGGA,090140.30,2335.30108273,S,04636.47146142,W,1,05,2.87,160.00,M,-21.3213,M,,*75
$GPGGA,090140.35,2335.30113115,S,04636.47228992,W,1,05,2.87,160.00,M,-21.3213,M,,*77
$GPGGA,090140.40,2335.30117958,S,04636.47311842,W,1,05,2.87,160.00,M,-21.3213,M,,*77
$GPGGA,090140.45,2335.30122803,S,04636.47394692,W,1,05,2.87,160.00,M,-21.3213,M,,*75
$GPGGA,090140.50,2335.30126964,S,04636.47465804,W,1,05,2.87,160.00,M,-21.3213,M,,*7D
$GPGGA,090140.55,2335.30131814,S,04636.47548653,W,1,05,2.87,160.00,M,-21.3213,M,,*7A
$GPGGA,090140.60,2335.30136668,S,04636.47631502,W,1,05,2.87,160.00,M,-21.3213,M,,*74
$GPGGA,090140.65,2335.30141525,S,04636.47714351,W,1,05,2.87,160.00,M,-21.3213,M,,*7D
$GPGGA,090140.70,2335.30146387,S,04636.47797199,W,1,05,2.87,160.00,M,-21.3213,M,,*7D
$GPGGA,090140.75,2335.30151254,S,04636.47880046,W,1,05,2.87,160.00,M,-21.3213,M,,*7B
$GPGGA,090140.80,2335.30156127,S,04636.47962893,W,1,05,2.87,160.00,M,-21.3213,M,,*7C
$GPGGA,090140.85,2335.30161006,S,04636.48045739,W,1,05,2.87,160.00,M,-21.3213,M,,*73
$GPGGA,090140.90,2335.30165201,S,04636.48116848,W,1,05,2.87,160.00,M,-21.3213,M,,*78
$GPGGA,090140.95,2335.30170097,S,04636.48199693,W,1,05,2.87,160.00,M,-21.3213,M,,*7B
$GPGGA,090141.00,2335.30175004,S,04636.48282536,W,1,05,2.87,160.00,M,-21.3213,M,,*7C
$GPGGA,090141.05,2335.30179922,S,04636.48365379,W,1,05,2.87,160.00,M,-21.3213,M,,*7D
$GPGGA,090141.10,2335.30184854,S,04636.48448220,W,1,05,2.87,160.00,M,-21.3213,M,,*7E
$GPGGA,090141.15,2335.30189803,S,04636.48531059,W,1,05,2.87,160.00,M,-21.3213,M,,*77
$GPGGA,090141.20,2335.30194770,S,04636.48613897,W,1,05,2.87,160.00,M,-21.3213,M,,*7F
$GPGGA,090141.25,2335.30199758,S,04636.48696733,W,1,05,2.87,160.00,M,-21.3213,M,,*71
$GPGGA,090141.30,2335.30204772,S,04636.48779566,W,1,05,2.87,160.00,M,-21.3213,M,,*78
$GPGGA,090141.35,2335.30209097,S,04636.48850661,W,1,05,2.87,160.00,M,-21.3213,M,,*7C
$GPGGA,090141.40,2335.30214167,S,04636.48933489,W,1,05,2.87,160.00,M,-21.3213,M,,*7C
$GPGGA,090141.45,2335.30219273,S,04636.49016313,W,1,05,2.87,160.00,M,-21.3213,M,,*79
$GPGGA,090141.50,2335.30224423,S,04636.49099133,W,1,05,2.87,160.00,M,-21.3213,M,,*77
$GPGGA,090141.55,2335.30229621,S,04636.49181948,W,1,05,2.87,160.00,M,-21.3213,M,,*73
$GPGGA,090141.60,2335.30234877,S,04636.49264758,W,1,05,2.87,160.00,M,-21.3213,M,,*73
$GPGGA,090141.65,2335.30240198,S,04636.49347562,W,1,05,2.87,160.00,M,-21.3213,M,,*76
$GPGGA,090141.70,2335.30245594,S,04636.49430358,W,1,05,2.87,160.00,M,-21.3213,M,,*77
$GPGGA,090141.75,2335.30251077,S,04636.49513147,W,1,05,2.87,160.00,M,-21.3213,M,,*73
$GPGGA,090141.80,2335.30255863,S,04636.49584199,W,1,05,2.87,160.00,M,-21.3213,M,,*7D
$GPGGA,090141.85,2335.30261544,S,04636.49666970,W,1,05,2.87,160.00,M,-21.3213,M,,*77
$GPGGA,090141.90,2335.30267356,S,04636.49749729,W,1,05,2.87,160.00,M,-21.3213,M,,*7E
$GPGGA,090141.95,2335.30273318,S,04636.49832476,W,1,05,2.87,160.00,M,-21.3213,M,,*7E
$GPGGA,090142.00,2335.30279451,S,04636.49915209,W,1,05,2.87,160.00,M,-21.3213,M,,*7B
$GPGGA,090142.05,2335.30285748,S,04636.49997928,W,1,05,2.87,160.00,M,-21.3213,M,,*74
$GPGGA,090142.10,2335.30292188,S,04636.50080636,W,1,05,2.87,160.00,M,-21.3213,M,,*7B
$GPGGA,090142.15,2335.30298753,S,04636.50163334,W,1,05,2.87,160.00,M,-21.3213,M,,*7F
$GPGGA,090142.20,2335.30304473,S,04636.50234310,W,1,05,2.87,160.00,M,-21.3213,M,,*7B
$GPGGA,090142.25,2335.30311226,S,04636.50316994,W,1,05,2.87,160.00,M,-21.3213,M,,*7B
$GPGGA,090142.30,2335.30318062,S,04636.50399673,W,1,05,2.87,160.00,M,-21.3213,M,,*75
$GPGGA,090142.35,2335.30324969,S,04636.50482346,W,1,05,2.87,160.00,M,-21.3213,M,,*73
$GPGGA,090142.40,2335.30331939,S,04636.50565015,W,1,05,2.87,160.00,M,-21.3213,M,,*7D
$GPGGA,090142.45,2335.30338963,S,04636.50647680,W,1,05,2.87,160.00,M,-21.3213,M,,*77
$GPGGA,090142.50,2335.30346034,S,04636.50730342,W,1,05,2.87,160.00,M,-21.3213,M,,*7B
$GPGGA,090142.55,2335.30353145,S,04636.50813001,W,1,05,2.87,160.00,M,-21.3213,M,,*77
$GPGGA,090142.60,2335.30360292,S,04636.50895657,W,1,05,2.87,160.00,M,-21.3213,M,,*73
$GPGGA,090142.65,2335.30366451,S,04636.50966603,W,1,05,2.87,160.00,M,-21.3213,M,,*75
$GPGGA,090142.70,2335.30373652,S,04636.51049256,W,1,05,2.87,160.00,M,-21.3213,M,,*75
$GPGGA,090142.75,2335.30380876,S,04636.51131907,W,1,05,2.87,160.00,M,-21.3213,M,,*75
$GPGGA,090142.80,2335.30388120,S,04636.51214557,W,1,05,2.87,160.00,M,-21.3213,M,,*70
$GPGGA,090142.85,2335.30395383,S,04636.51297206,W,1,05,2.87,160.00,M,-21.3213,M,,*7A
$GPGGA,090142.90,2335.30402660,S,04636.51379854,W,1,05,2.87,160.00,M,-21.3213,M,,*73
$GPGGA,090142.95,2335.30409951,S,04636.51462501,W,1,05,2.87,160.00,M,-21.3213,M,,*70
$GPGGA,090143.00,2335.30417254,S,04636.51545148,W,1,05,2.87,160.00,M,-21.3213,M,,*71
$GPGGA,090143.05,2335.30423530,S,04636.51616086,W,1,05,2.87,160.00,M,-21.3213,M,,*70
$GPGGA,090143.10,2335.30430850,S,04636.51698731,W,1,05,2.87,160.00,M,-21.3213,M,,*70
$GPGGA,090143.15,2335.30438177,S,04636.51781376,W,1,05,2.87,160.00,M,-21.3213,M,,*7F
$GPGGA,090143.20,2335.30445512,S,04636.51864020,W,1,05,2.87,160.00,M,-21.3213,M,,*70
$GPGGA,090143.25,2335.30452852,S,04636.51946664,W,1,05,2.87,160.00,M,-21.3213,M,,*7D
$GPGGA,090143.30,2335.30460197,S,04636.52029307,W,1,05,2.87,160.00,M,-21.3213,M,,*7B
$GPGGA,090143.35,2335.30467546,S,04636.52111951,W,1,05,2.87,160.00,M,-21.3213,M,,*72
$GPGGA,090143.40,2335.30474899,S,04636.52194594,W,1,05,2.87,160.00,M,-21.3213,M,,*75
$GPGGA,090143.45,2335.30482255,S,04636.52277237,W,1,05,2.87,160.00,M,-21.3213,M,,*73
$GPGGA,090143.50,2335.30488571,S,04636.52348172,W,1,05,2.87,160.00,M,-21.3213,M,,*73
$GPGGA,090143.55,2335.30495932,S,04636.52430815,W,1,05,2.87,160.00,M,-21.3213,M,,*71
$GPGGA,090143.60,2335.30503295,S,04636.52513458,W,1,05,2.87,160.00,M,-21.3213,M,,*7A
$GPGGA,090143.65,2335.30510660,S,04636.52596100,W,1,05,2.87,160.00,M,-21.3213,M,,*76
$GPGGA,090143.70,2335.30518026,S,04636.52678742,W,1,05,2.87,160.00,M,-21.3213,M,,*7D
$GPGGA,090143.75,2335.30525393,S,04636.52761385,W,1,05,2.87,160.00,M,-21.3213,M,,*7D
$GPGGA,090143.80,2335.30532761,S,04636.52844027,W,1,05,2.87,160.00,M,-21.3213,M,,*7B
$GPGGA,090143.85,2335.30540130,S,04636.52926670,W,1,05,2.87,160.00,M,-21.3213,M,,*78
$GPGGA,090143.90,2335.30546455,S,04636.52997605,W,1,05,2.87,160.00,M,-21.3213,M,,*74
$GPGGA,090143.95,2335.30553825,S,04636.53080247,W,1,05,2.87,160.00,M,-21.3213,M,,*72
$GPGGA,090144.00,2335.30561194,S,04636.53162890,W,1,05,2.87,160.00,M,-21.3213,M,,*76
$GPGGA,090144.05,2335.30568564,S,04636.53245532,W,1,05,2.87,160.00,M,-21.3213,M,,*72
$GPGGA,090144.10,2335.30575934,S,04636.53328175,W,1,05,2.87,160.00,M,-21.3213,M,,*7E
$GPGGA,090144.15,2335.30583303,S,04636.53410818,W,1,05,2.87,160.00,M,-21.3213,M,,*72
$GPGGA,090144.20,2335.30590671,S,04636.53493461,W,1,05,2.87,160.00,M,-21.3213,M,,*7F
$GPGGA,090144.25,2335.30598039,S,04636.53576104,W,1,05,2.87,160.00,M,-21.3213,M,,*74
$GPGGA,090144.30,2335.30605406,S,04636.53658748,W,1,05,2.87,160.00,M,-21.3213,M,,*7E
$GPGGA,090144.35,2335.30611728,S,04636.53729684,W,1,05,2.87,160.00,M,-21.3213,M,,*77
$GPGGA,090144.40,2335.30619092,S,04636.53812328,W,1,05,2.87,160.00,M,-21.3213,M,,*7F
$GPGGA,090144.45,2335.30626455,S,04636.53894973,W,1,05,2.87,160.00,M,-21.3213,M,,*73
$GPGGA,090144.50,2335.30633816,S,04636.53977618,W,1,05,2.87,160.00,M,-21.3213,M,,*76
$GPGGA,090144.55,2335.30641174,S,04636.54060263,W,1,05,2.87,160.00,M,-21.3213,M,,*7B
$GPGGA,090144.60,2335.30648529,S,04636.54142909,W,1,05,2.87,160.00,M,-21.3213,M,,*7E
$GPGGA,090144.65,2335.30655881,S,04636.54225556,W,1,05,2.87,160.00,M,-21.3213,M,,*7C
$GPGGA,090144.70,2335.30663229,S,04636.54308203,W,1,05,2.87,160.00,M,-21.3213,M,,*7C
$GPGGA,090144.75,2335.30669532,S,04636.54379144,W,1,05,2.87,160.00,M,-21.3213,M,,*78
$GPGGA,090144.80,2335.30676871,S,04636.54461793,W,1,05,2.87,160.00,M,-21.3213,M,,*74
$GPGGA,090144.85,2335.30684205,S,04636.54544443,W,1,05,2.87,160.00,M,-21.3213,M,,*7D
$GPGGA,090144.90,2335.30691531,S,04636.54627095,W,1,05,2.87,160.00,M,-21.3213,M,,*74
$GPGGA,090144.95,2335.30698850,S,04636.54709749,W,1,05,2.87,160.00,M,-21.3213,M,,*79
$GPGGA,090145.00,2335.30706160,S,04636.54792404,W,1,05,2.87,160.00,M,-21.3213,M,,*70
$GPGGA,090145.05,2335.30713459,S,04636.54875061,W,1,05,2.87,160.00,M,-21.3213,M,,*7F
$GPGGA,090145.10,2335.30720746,S,04636.54957721,W,1,05,2.87,160.00,M,-21.3213,M,,*74
$GPGGA,090145.15,2335.30726990,S,04636.55028674,W,1,05,2.87,160.00,M,-21.3213,M,,*73
$GPGGA,090145.20,2335.30734250,S,04636.55111339,W,1,05,2.87,160.00,M,-21.3213,M,,*76
$GPGGA,090145.25,2335.30741492,S,04636.55194009,W,1,05,2.87,160.00,M,-21.3213,M,,*74
$GPGGA,090145.30,2335.30748713,S,04636.55276682,W,1,05,2.87,160.00,M,-21.3213,M,,*79
$GPGGA,090145.35,2335.30755910,S,04636.55359360,W,1,05,2.87,160.00,M,-21.3213,M,,*78
$GPGGA,090145.40,2335.30763079,S,04636.55442044,W,1,05,2.87,160.00,M,-21.3213,M,,*71
$GPGGA,090145.45,2335.30770217,S,04636.55524734,W,1,05,2.87,160.00,M,-21.3213,M,,*7D
$GPGGA,090145.50,2335.30777317,S,04636.55607432,W,1,05,2.87,160.00,M,-21.3213,M,,*78
$GPGGA,090145.55,2335.30784376,S,04636.55690139,W,1,05,2.87,160.00,M,-21.3213,M,,*76
$GPGGA,090145.60,2335.30790396,S,04636.55761139,W,1,05,2.87,160.00,M,-21.3213,M,,*74
$GPGGA,090145.65,2335.30797358,S,04636.55843866,W,1,05,2.87,160.00,M,-21.3213,M,,*78
$GPGGA,090145.70,2335.30804256,S,04636.55926606,W,1,05,2.87,160.00,M,-21.3213,M,,*7C
$GPGGA,090145.75,2335.30811082,S,04636.56009361,W,1,05,2.87,160.00,M,-21.3213,M,,*75
$GPGGA,090145.80,2335.30817822,S,04636.56092134,W,1,05,2.87,160.00,M,-21.3213,M,,*7B
$GPGGA,090145.85,2335.30824466,S,04636.56174927,W,1,05,2.87,160.00,M,-21.3213,M,,*71
$GPGGA,090145.90,2335.30830997,S,04636.56257744,W,1,05,2.87,160.00,M,-21.3213,M,,*7A
$GPGGA,090145.95,2335.30837400,S,04636.56340589,W,1,05,2.87,160.00,M,-21.3213,M,,*7F
$GPGGA,090146.00,2335.30842778,S,04636.56411732,W,1,05,2.87,160.00,M,-21.3213,M,,*7F
$GPGGA,090146.05,2335.30848885,S,04636.56494642,W,1,05,2.87,160.00,M,-21.3213,M,,*76
$GPGGA,090146.10,2335.30854799,S,04636.56577594,W,1,05,2.87,160.00,M,-21.3213,M,,*79
$GPGGA,090146.15,2335.30860499,S,04636.56660594,W,1,05,2.87,160.00,M,-21.3213,M,,*7D
$GPGGA,090146.20,2335.30866011,S,04636.56743636,W,1,05,2.87,160.00,M,-21.3213,M,,*72
$GPGGA,090146.25,2335.30871368,S,04636.56826713,W,1,05,2.87,160.00,M,-21.3213,M,,*76
$GPGGA,090146.30,2335.30876604,S,04636.56909819,W,1,05,2.87,160.00,M,-21.3213,M,,*73
$GPGGA,090146.35,2335.30881023,S,04636.56981189,W,1,05,2.87,160.00,M,-21.3213,M,,*7D
$GPGGA,090146.40,2335.30886107,S,04636.57064330,W,1,05,2.87,160.00,M,-21.3213,M,,*7C
$GPGGA,090146.45,2335.30891147,S,04636.57147480,W,1,05,2.87,160.00,M,-21.3213,M,,*77
$GPGGA,090146.50,2335.30896169,S,04636.57230635,W,1,05,2.87,160.00,M,-21.3213,M,,*77
$GPGGA,090146.55,2335.30901197,S,04636.57313787,W,1,05,2.87,160.00,M,-21.3213,M,,*74
$GPGGA,090146.60,2335.30906257,S,04636.57396932,W,1,05,2.87,160.00,M,-21.3213,M,,*77
$GPGGA,090146.65,2335.30911373,S,04636.57480062,W,1,05,2.87,160.00,M,-21.3213,M,,*7F
$GPGGA,090146.70,2335.30915832,S,04636.57551419,W,1,05,2.87,160.00,M,-21.3213,M,,*74
$GPGGA,090146.75,2335.30921126,S,04636.57634506,W,1,05,2.87,160.00,M,-21.3213,M,,*75
$GPGGA,090146.80,2335.30926559,S,04636.57717560,W,1,05,2.87,160.00,M,-21.3213,M,,*74
$GPGGA,090146.85,2335.30932163,S,04636.57800574,W,1,05,2.87,160.00,M,-21.3213,M,,*75
$GPGGA,090146.90,2335.30937975,S,04636.57883540,W,1,05,2.87,160.00,M,-21.3213,M,,*77
$GPGGA,090146.95,2335.30944028,S,04636.57966451,W,1,05,2.87,160.00,M,-21.3213,M,,*7C
$GPGGA,090147.00,2335.30950308,S,04636.58049312,W,1,05,2.87,160.00,M,-21.3213,M,,*7E
$GPGGA,090147.05,2335.30956786,S,04636.58132128,W,1,05,2.87,160.00,M,-21.3213,M,,*79
$GPGGA,090147.10,2335.30962484,S,04636.58203186,W,1,05,2.87,160.00,M,-21.3213,M,,*7E
$GPGGA,090147.15,2335.30969262,S,04636.58285935,W,1,05,2.87,160.00,M,-21.3213,M,,*70
$GPGGA,090147.20,2335.30976171,S,04636.58368657,W,1,05,2.87,160.00,M,-21.3213,M,,*70
$GPGGA,090147.25,2335.30983195,S,04636.58451353,W,1,05,2.87,160.00,M,-21.3213,M,,*79
$GPGGA,090147.30,2335.30990317,S,04636.58534029,W,1,05,2.87,160.00,M,-21.3213,M,,*7B
$GPGGA,090147.35,2335.30997526,S,04636.58616687,W,1,05,2.87,160.00,M,-21.3213,M,,*7C
$GPGGA,090147.40,2335.31004810,S,04636.58699329,W,1,05,2.87,160.00,M,-21.3213,M,,*72
$GPGGA,090147.45,2335.31012159,S,04636.58781957,W,1,05,2.87,160.00,M,-21.3213,M,,*7F
$GPGGA,090147.50,2335.31018512,S,04636.58852869,W,1,05,2.87,160.00,M,-21.3213,M,,*77
$GPGGA,090147.55,2335.31025960,S,04636.58935477,W,1,05,2.87,160.00,M,-21.3213,M,,*76
$GPGGA,090147.60,2335.31033452,S,04636.59018075,W,1,05,2.87,160.00,M,-21.3213,M,,*7A
$GPGGA,090147.65,2335.31040982,S,04636.59100665,W,1,05,2.87,160.00,M,-21.3213,M,,*74
$GPGGA,090147.70,2335.31048546,S,04636.59183249,W,1,05,2.87,160.00,M,-21.3213,M,,*7D
$GPGGA,090147.75,2335.31056138,S,04636.59265826,W,1,05,2.87,160.00,M,-21.3213,M,,*72
$GPGGA,090147.80,2335.31063757,S,04636.59348398,W,1,05,2.87,160.00,M,-21.3213,M,,*71
$GPGGA,090147.85,2335.31071398,S,04636.59430965,W,1,05,2.87,160.00,M,-21.3213,M,,*70
$GPGGA,090147.90,2335.31079059,S,04636.59513528,W,1,05,2.87,160.00,M,-21.3213,M,,*77
$GPGGA,090147.95,2335.31085649,S,04636.59584389,W,1,05,2.87,160.00,M,-21.3213,M,,*75
$GPGGA,090148.00,2335.31093342,S,04636.59666945,W,1,05,2.87,160.00,M,-21.3213,M,,*7A
$GPGGA,090148.05,2335.31101051,S,04636.59749498,W,1,05,2.87,160.00,M,-21.3213,M,,*75
$GPGGA,090148.10,2335.31108772,S,04636.59832048,W,1,05,2.87,160.00,M,-21.3213,M,,*74
$GPGGA,090148.15,2335.31116507,S,04636.59914594,W,1,05,2.87,160.00,M,-21.3213,M,,*7F
$GPGGA,090148.20,2335.31124253,S,04636.59997139,W,1,05,2.87,160.00,M,-21.3213,M,,*76
$GPGGA,090148.25,2335.31132011,S,04636.60079680,W,1,05,2.87,160.00,M,-21.3213,M,,*76
$GPGGA,090148.30,2335.31139780,S,04636.60162219,W,1,05,2.87,160.00,M,-21.3213,M,,*79
$GPGGA,090148.35,2335.31147560,S,04636.60244755,W,1,05,2.87,160.00,M,-21.3213,M,,*73
$GPGGA,090148.40,2335.31154248,S,04636.60315591,W,1,05,2.87,160.00,M,-21.3213,M,,*71
$GPGGA,090148.45,2335.31162050,S,04636.60398122,W,1,05,2.87,160.00,M,-21.3213,M,,*73
$GPGGA,090148.50,2335.31169865,S,04636.60480648,W,1,05,2.87,160.00,M,-21.3213,M,,*77
$GPGGA,090148.55,2335.31177694,S,04636.60563171,W,1,05,2.87,160.00,M,-21.3213,M,,*7C
$GPGGA,090148.60,2335.31185537,S,04636.60645691,W,1,05,2.87,160.00,M,-21.3213,M,,*73
$GPGGA,090148.65,2335.31193397,S,04636.60728205,W,1,05,2.87,160.00,M,-21.3213,M,,*7E
$GPGGA,090148.70,2335.31201274,S,04636.60810715,W,1,05,2.87,160.00,M,-21.3213,M,,*7E
$GPGGA,090148.75,2335.31209173,S,04636.60893219,W,1,05,2.87,160.00,M,-21.3213,M,,*75
$GPGGA,090148.80,2335.31217094,S,04636.60975716,W,1,05,2.87,160.00,M,-21.3213,M,,*7B
$GPGGA,090148.85,2335.31223913,S,04636.61046515,W,1,05,2.87,160.00,M,-21.3213,M,,*76
$GPGGA,090148.90,2335.31231885,S,04636.61128997,W,1,05,2.87,160.00,M,-21.3213,M,,*70
$GPGGA,090148.95,2335.31239890,S,04636.61211470,W,1,05,2.87,160.00,M,-21.3213,M,,*74
$GPGGA,090149.00,2335.31247934,S,04636.61293933,W,1,05,2.87,160.00,M,-21.3213,M,,*7F
$GPGGA,090149.05,2335.31256021,S,04636.61376383,W,1,05,2.87,160.00,M,-21.3213,M,,*7C
$GPGGA,090149.10,2335.31264157,S,04636.61458819,W,1,05,2.87,160.00,M,-21.3213,M,,*7A
$GPGGA,090149.15,2335.31272351,S,04636.61541239,W,1,05,2.87,160.00,M,-21.3213,M,,*7D
$GPGGA,090149.20,2335.31280611,S,04636.61623640,W,1,05,2.87,160.00,M,-21.3213,M,,*7A
$GPGGA,090149.25,2335.31288946,S,04636.61706020,W,1,05,2.87,160.00,M,-21.3213,M,,*7C
$GPGGA,090149.30,2335.31296169,S,04636.61776699,W,1,05,2.87,160.00,M,-21.3213,M,,*71
$GPGGA,090149.35,2335.31304677,S,04636.61859030,W,1,05,2.87,160.00,M,-21.3213,M,,*71
$GPGGA,090149.40,2335.31313298,S,04636.61941329,W,1,05,2.87,160.00,M,-21.3213,M,,*73
$GPGGA,090149.45,2335.31322049,S,04636.62023593,W,1,05,2.87,160.00,M,-21.3213,M,,*73
$GPGGA,090149.50,2335.31330950,S,04636.62105815,W,1,05,2.87,160.00,M,-21.3213,M,,*73
$GPGGA,090149.55,2335.31340024,S,04636.62187991,W,1,05,2.87,160.00,M,-21.3213,M,,*7C
$GPGGA,090149.60,2335.31349297,S,04636.62270113,W,1,05,2.87,160.00,M,-21.3213,M,,*70
$GPGGA,090149.65,2335.31358799,S,04636.62352174,W,1,05,2.87,160.00,M,-21.3213,M,,*7E
$GPGGA,090149.70,2335.31368565,S,04636.62434166,W,1,05,2.87,160.00,M,-21.3213,M,,*7C
$GPGGA,090149.75,2335.31378635,S,04636.62516079,W,1,05,2.87,160.00,M,-21.3213,M,,*70
$GPGGA,090149.80,2335.31387552,S,04636.62586288,W,1,05,2.87,160.00,M,-21.3213,M,,*7D
$GPGGA,090149.85,2335.31398314,S,04636.62668025,W,1,05,2.87,160.00,M,-21.3213,M,,*74
$GPGGA,090149.90,2335.31409533,S,04636.62749652,W,1,05,2.87,160.00,M,-21.3213,M,,*78
$GPGGA,090149.95,2335.31421276,S,04636.62831155,W,1,05,2.87,160.00,M,-21.3213,M,,*71
$GPGGA,090150.00,2335.31433624,S,04636.62912522,W,1,05,2.87,160.00,M,-21.3213,M,,*71
$GPGGA,090150.05,2335.31446669,S,04636.62993737,W,1,05,2.87,160.00,M,-21.3213,M,,*70
$GPGGA,090150.10,2335.31460466,S,04636.63074798,W,1,05,2.87,160.00,M,-21.3213,M,,*79
$GPGGA,090150.15,2335.31474882,S,04636.63155735,W,1,05,2.87,160.00,M,-21.3213,M,,*7A
$GPGGA,090150.20,2335.31489754,S,04636.63236585,W,1,05,2.87,160.00,M,-21.3213,M,,*75
$GPGGA,090150.25,2335.31504926,S,04636.63317376,W,1,05,2.87,160.00,M,-21.3213,M,,*77
$GPGGA,090150.30,2335.31520247,S,04636.63398138,W,1,05,2.87,160.00,M,-21.3213,M,,*76
$GPGGA,090150.35,2335.31535570,S,04636.63478893,W,1,05,2.87,160.00,M,-21.3213,M,,*75
$GPGGA,090150.40,2335.31550746,S,04636.63559669,W,1,05,2.87,160.00,M,-21.3213,M,,*7A
$GPGGA,090150.45,2335.31565626,S,04636.63640492,W,1,05,2.87,160.00,M,-21.3213,M,,*73
$GPGGA,090150.50,2335.31580053,S,04636.63721390,W,1,05,2.87,160.00,M,-21.3213,M,,*7B
$GPGGA,090150.55,2335.31591944,S,04636.63790870,W,1,05,2.87,160.00,M,-21.3213,M,,*7E
$GPGGA,090150.60,2335.31605088,S,04636.63872004,W,1,05,2.87,160.00,M,-21.3213,M,,*77
$GPGGA,090150.65,2335.31617390,S,04636.63953308,W,1,05,2.87,160.00,M,-21.3213,M,,*76
$GPGGA,090150.70,2335.31628945,S,04636.64034770,W,1,05,2.87,160.00,M,-21.3213,M,,*78
$GPGGA,090150.75,2335.31639852,S,04636.64116377,W,1,05,2.87,160.00,M,-21.3213,M,,*78
$GPGGA,090150.80,2335.31650197,S,04636.64198115,W,1,05,2.87,160.00,M,-21.3213,M,,*7D
$GPGGA,090150.85,2335.31660054,S,04636.64279969,W,1,05,2.87,160.00,M,-21.3213,M,,*7A
$GPGGA,090150.90,2335.31669488,S,04636.64361928,W,1,05,2.87,160.00,M,-21.3213,M,,*7F
$GPGGA,090150.95,2335.31678554,S,04636.64443979,W,1,05,2.87,160.00,M,-21.3213,M,,*79
$GPGGA,090151.00,2335.31687300,S,04636.64526112,W,1,05,2.87,160.00,M,-21.3213,M,,*74
$GPGGA,090151.05,2335.31695770,S,04636.64608318,W,1,05,2.87,160.00,M,-21.3213,M,,*76
$GPGGA,090151.10,2335.31703999,S,04636.64690588,W,1,05,2.87,160.00,M,-21.3213,M,,*7B
$GPGGA,090151.15,2335.31710892,S,04636.64761231,W,1,05,2.87,160.00,M,-21.3213,M,,*7C
$GPGGA,090151.20,2335.31718755,S,04636.64843602,W,1,05,2.87,160.00,M,-21.3213,M,,*7D
$GPGGA,090151.25,2335.31726457,S,04636.64926016,W,1,05,2.87,160.00,M,-21.3213,M,,*75
$GPGGA,090151.30,2335.31734020,S,04636.65008468,W,1,05,2.87,160.00,M,-21.3213,M,,*7F
$GPGGA,090151.35,2335.31741462,S,04636.65090954,W,1,05,2.87,160.00,M,-21.3213,M,,*79
$GPGGA,090151.40,2335.31748798,S,04636.65173469,W,1,05,2.87,160.00,M,-21.3213,M,,*7B
$GPGGA,090151.45,2335.31756044,S,04636.65256010,W,1,05,2.87,160.00,M,-21.3213,M,,*79
$GPGGA,090151.50,2335.31763210,S,04636.65338573,W,1,05,2.87,160.00,M,-21.3213,M,,*71
$GPGGA,090151.55,2335.31770308,S,04636.65421155,W,1,05,2.87,160.00,M,-21.3213,M,,*71
$GPGGA,090151.60,2335.31777346,S,04636.65503754,W,1,05,2.87,160.00,M,-21.3213,M,,*7C
$GPGGA,090151.65,2335.31783345,S,04636.65574660,W,1,05,2.87,160.00,M,-21.3213,M,,*77
$GPGGA,090151.70,2335.31790292,S,04636.65657285,W,1,05,2.87,160.00,M,-21.3213,M,,*77
$GPGGA,090151.75,2335.31797199,S,04636.65739922,W,1,05,2.87,160.00,M,-21.3213,M,,*72
$GPGGA,090151.80,2335.31804072,S,04636.65822569,W,1,05,2.87,160.00,M,-21.3213,M,,*7F
$GPGGA,090151.85,2335.31810915,S,04636.65905225,W,1,05,2.87,160.00,M,-21.3213,M,,*7C
$GPGGA,090151.90,2335.31817732,S,04636.65987887,W,1,05,2.87,160.00,M,-21.3213,M,,*7C
$GPGGA,090151.95,2335.31824527,S,04636.66070557,W,1,05,2.87,160.00,M,-21.3213,M,,*7D
$GPGGA,090152.00,2335.31831302,S,04636.66153232,W,1,05,2.87,160.00,M,-21.3213,M,,*73
$GPGGA,090152.05,2335.31838059,S,04636.66235912,W,1,05,2.87,160.00,M,-21.3213,M,,*78
$GPGGA,090152.10,2335.31843848,S,04636.66306881,W,1,05,2.87,160.00,M,-21.3213,M,,*72
$GPGGA,090152.15,2335.31850580,S,04636.66389568,W,1,05,2.87,160.00,M,-21.3213,M,,*71
$GPGGA,090152.20,2335.31857301,S,04636.66472259,W,1,05,2.87,160.00,M,-21.3213,M,,*79
$GPGGA,090152.25,2335.31864011,S,04636.66554953,W,1,05,2.87,160.00,M,-21.3213,M,,*7A
$GPGGA,090152.30,2335.31870714,S,04636.66637649,W,1,05,2.87,160.00,M,-21.3213,M,,*7B
$GPGGA,090152.35,2335.31877408,S,04636.66720347,W,1,05,2.87,160.00,M,-21.3213,M,,*7B
$GPGGA,090152.40,2335.31884097,S,04636.66803047,W,1,05,2.87,160.00,M,-21.3213,M,,*7A
$GPGGA,090152.45,2335.31890779,S,04636.66885748,W,1,05,2.87,160.00,M,-21.3213,M,,*7B
$GPGGA,090152.50,2335.31896512,S,04636.66956735,W,1,05,2.87,160.00,M,-21.3213,M,,*73
$GPGGA,090152.55,2335.31903186,S,04636.67039439,W,1,05,2.87,160.00,M,-21.3213,M,,*7C
$GPGGA,090152.60,2335.31909856,S,04636.67122144,W,1,05,2.87,160.00,M,-21.3213,M,,*70
$GPGGA,090152.65,2335.31916523,S,04636.67204850,W,1,05,2.87,160.00,M,-21.3213,M,,*7F
$GPGGA,090152.70,2335.31923187,S,04636.67287557,W,1,05,2.87,160.00,M,-21.3213,M,,*76
$GPGGA,090152.75,2335.31929849,S,04636.67370265,W,1,05,2.87,160.00,M,-21.3213,M,,*7D
$GPGGA,090152.80,2335.31936508,S,04636.67452973,W,1,05,2.87,160.00,M,-21.3213,M,,*7A
$GPGGA,090152.85,2335.31943166,S,04636.67535682,W,1,05,2.87,160.00,M,-21.3213,M,,*70
$GPGGA,090152.90,2335.31949822,S,04636.67618391,W,1,05,2.87,160.00,M,-21.3213,M,,*7C
$GPGGA,090152.95,2335.31955533,S,04636.67689384,W,1,05,2.87,160.00,M,-21.3213,M,,*75
$GPGGA,090153.00,2335.31962186,S,04636.67772093,W,1,05,2.87,160.00,M,-21.3213,M,,*76
$GPGGA,090153.05,2335.31968838,S,04636.67854804,W,1,05,2.87,160.00,M,-21.3213,M,,*78
$GPGGA,090153.10,2335.31975489,S,04636.67937514,W,1,05,2.87,160.00,M,-21.3213,M,,*7E
$GPGGA,090153.15,2335.31982138,S,04636.68020225,W,1,05,2.87,160.00,M,-21.3213,M,,*79
$GPGGA,090153.20,2335.31988787,S,04636.68102936,W,1,05,2.87,160.00,M,-21.3213,M,,*7F
$GPGGA,090153.25,2335.31995434,S,04636.68185647,W,1,05,2.87,160.00,M,-21.3213,M,,*7B
$GPGGA,090153.30,2335.32002081,S,04636.68268358,W,1,05,2.87,160.00,M,-21.3213,M,,*7A
$GPGGA,090153.35,2335.32007785,S,04636.68339352,W,1,05,2.87,160.00,M,-21.3213,M,,*76
$GPGGA,090153.40,2335.32014430,S,04636.68422064,W,1,05,2.87,160.00,M,-21.3213,M,,*70
$GPGGA,090153.45,2335.32021073,S,04636.68504775,W,1,05,2.87,160.00,M,-21.3213,M,,*72
$GPGGA,090153.50,2335.32027716,S,04636.68587487,W,1,05,2.87,160.00,M,-21.3213,M,,*71
$GPGGA,090153.55,2335.32034358,S,04636.68670199,W,1,05,2.87,160.00,M,-21.3213,M,,*79
$GPGGA,090153.60,2335.32040998,S,04636.68752911,W,1,05,2.87,160.00,M,-21.3213,M,,*73
$GPGGA,090153.65,2335.32047637,S,04636.68835623,W,1,05,2.87,160.00,M,-21.3213,M,,*7B
$GPGGA,090153.70,2335.32054275,S,04636.68918334,W,1,05,2.87,160.00,M,-21.3213,M,,*72
$GPGGA,090153.75,2335.32060911,S,04636.69001046,W,1,05,2.87,160.00,M,-21.3213,M,,*7F
$GPGGA,090153.80,2335.32066605,S,04636.69072041,W,1,05,2.87,160.00,M,-21.3213,M,,*7A
$GPGGA,090153.85,2335.32073237,S,04636.69154753,W,1,05,2.87,160.00,M,-21.3213,M,,*7F
$GPGGA,090153.90,2335.32079867,S,04636.69237465,W,1,05,2.87,160.00,M,-21.3213,M,,*7E
$GPGGA,090153.95,2335.32086495,S,04636.69320177,W,1,05,2.87,160.00,M,-21.3213,M,,*7B
$GPGGA,090154.00,2335.32093119,S,04636.69402889,W,1,05,2.87,160.00,M,-21.3213,M,,*7A
$GPGGA,090154.05,2335.32099739,S,04636.69485601,W,1,05,2.87,160.00,M,-21.3213,M,,*70
$GPGGA,090154.10,2335.32106356,S,04636.69568313,W,1,05,2.87,160.00,M,-21.3213,M,,*7A
$GPGGA,090154.15,2335.32112968,S,04636.69651025,W,1,05,2.87,160.00,M,-21.3213,M,,*72
$GPGGA,090154.20,2335.32118639,S,04636.69722020,W,1,05,2.87,160.00,M,-21.3213,M,,*75
$GPGGA,090154.25,2335.32125240,S,04636.69804732,W,1,05,2.87,160.00,M,-21.3213,M,,*7B
$GPGGA,090154.30,2335.32131835,S,04636.69887444,W,1,05,2.87,160.00,M,-21.3213,M,,*7B
$GPGGA,090154.35,2335.32138421,S,04636.69970156,W,1,05,2.87,160.00,M,-21.3213,M,,*71
$GPGGA,090154.40,2335.32144999,S,04636.70052868,W,1,05,2.87,160.00,M,-21.3213,M,,*73
$GPGGA,090154.45,2335.32151566,S,04636.70135580,W,1,05,2.87,160.00,M,-21.3213,M,,*75
$GPGGA,090154.50,2335.32158121,S,04636.70218292,W,1,05,2.87,160.00,M,-21.3213,M,,*77
$GPGGA,090154.55,2335.32164661,S,04636.70301004,W,1,05,2.87,160.00,M,-21.3213,M,,*7A
$GPGGA,090154.60,2335.32171186,S,04636.70383715,W,1,05,2.87,160.00,M,-21.3213,M,,*7B
$GPGGA,090154.65,2335.32176772,S,04636.70454709,W,1,05,2.87,160.00,M,-21.3213,M,,*74
$GPGGA,090154.70,2335.32183260,S,04636.70537421,W,1,05,2.87,160.00,M,-21.3213,M,,*71
$GPGGA,090154.75,2335.32189724,S,04636.70620132,W,1,05,2.87,160.00,M,-21.3213,M,,*79
$GPGGA,090154.80,2335.32196166,S,04636.70702844,W,1,05,2.87,160.00,M,-21.3213,M,,*74
$GPGGA,090154.85,2335.32202588,S,04636.70785556,W,1,05,2.87,160.00,M,-21.3213,M,,*7A
$GPGGA,090154.90,2335.32208993,S,04636.70868267,W,1,05,2.87,160.00,M,-21.3213,M,,*7B
$GPGGA,090154.95,2335.32215383,S,04636.70950979,W,1,05,2.87,160.00,M,-21.3213,M,,*77
$GPGGA,090155.00,2335.32221761,S,04636.71033690,W,1,05,2.87,160.00,M,-21.3213,M,,*70
$GPGGA,090155.05,2335.32227226,S,04636.71104683,W,1,05,2.87,160.00,M,-21.3213,M,,*72
